[{"id":0,"name":"Eugenio Trias Municipal Public Library","rating":3.8,"review_count":800,"price_range":0,"category":"Public library","address":"P.\u00ba de Fern\u00e1n N\u00fa\u00f1ez, 24","latitude":40.4167046,"longitude":-3.6791607},{"id":1,"name":"Iv\u00e1n de Vargas Library","rating":4.3,"review_count":313,"price_range":0,"category":"Public library","address":"C. de San Justo, 5","latitude":40.4139907,"longitude":-3.7097496},{"id":2,"name":"Biblioteca Mario Vargas Llosa","rating":3.8,"review_count":178,"price_range":0,"category":"Public library","address":"C. de Barcel\u00f3, 4","latitude":40.4267129,"longitude":-3.6993938},{"id":3,"name":"Pedro Salinas Library","rating":4.0,"review_count":337,"price_range":0,"category":"Public library","address":"Gta. de la Prta de Toledo, 1","latitude":40.4070743,"longitude":-3.7108938},{"id":4,"name":"Acuna Public Library","rating":2.9,"review_count":118,"price_range":0,"category":"Public library","address":"C. de Quintana, 9","latitude":40.4279318,"longitude":-3.716937},{"id":5,"name":"Biblioteca P\u00fablica Municipal David Gistau","rating":3.8,"review_count":118,"price_range":0,"category":"Public library","address":"Calle de N\u00fa\u00f1ez de Balboa, 40","latitude":40.4268682,"longitude":-3.6820928},{"id":6,"name":"Biblioteca P\u00fablica Ruiz Egea","rating":3.1,"review_count":87,"price_range":0,"category":"Public library","address":"C. de Raimundo Fern\u00e1ndez Villaverde, 6","latitude":40.4466083,"longitude":-3.7028748},{"id":7,"name":"Elena Fort\u00fan Public Library","rating":4.2,"review_count":361,"price_range":0,"category":"Public library","address":"C. del Dr. Esquerdo, 189","latitude":40.4034753,"longitude":-3.672219},{"id":8,"name":"Francisco Ib\u00e1\u00f1ez Public Library","rating":3.8,"review_count":98,"price_range":0,"category":"Library","address":"C. de Mantuano, 51","latitude":40.4482137,"longitude":-3.6762612},{"id":9,"name":"RAFAEL ALBERTI Public Library","rating":4.0,"review_count":263,"price_range":0,"category":"Public library","address":"C. de Sangenjo, 38","latitude":40.4879816,"longitude":-3.6981455},{"id":10,"name":"Municipal Public Library Mar\u00eda Zambrano","rating":4.0,"review_count":129,"price_range":0,"category":"Library","address":"Pl. de Donoso, 5","latitude":40.4690599,"longitude":-3.697343},{"id":11,"name":"D\u00e1maso Alonso Municipal Public Library","rating":4.2,"review_count":102,"price_range":0,"category":"Public library","address":"C. de Manuel Ferrero, 1","latitude":40.4674581,"longitude":-3.6845998},{"id":12,"name":"Biblioteca Popular de los Jardines del arquitecto Herrero Palacios","rating":4.3,"review_count":16,"price_range":0,"category":"Public library","address":"Av. de Men\u00e9ndez Pelayo, 22","latitude":40.4155377,"longitude":-3.6783905},{"id":13,"name":"Public Library Carabanchel Luis Rosales","rating":4.3,"review_count":477,"price_range":0,"category":"Public library","address":"C. de Antonia Rodr\u00edguez Sacrist\u00e1n, 7, 9","latitude":40.373533,"longitude":-3.7477012},{"id":14,"name":"Public Library Luis Martin Santos","rating":4.2,"review_count":313,"price_range":0,"category":"Public library","address":"Pl. Antonio Mar\u00eda Segovia, 2","latitude":40.3810712,"longitude":-3.6137717},{"id":15,"name":"Biblioteca Escuelas P\u00edas - UNED","rating":4.0,"review_count":100,"price_range":0,"category":"Public library","address":"C. del Sombrerete, 15","latitude":40.4081203,"longitude":-3.703257},{"id":16,"name":"Bibliometro Nuevos Ministerios","rating":3.5,"review_count":2,"price_range":0,"category":"Public library","address":"C. de Raimundo Fern\u00e1ndez Villaverde, 69","latitude":40.4465895,"longitude":-3.6921115},{"id":17,"name":"Jos\u00e9 Hierro Library","rating":4.2,"review_count":491,"price_range":0,"category":"Public library","address":"Av. de Rafaela Ybarra, 43","latitude":40.3818526,"longitude":-3.7106068},{"id":18,"name":"Mar\u00eda Moliner Public Library","rating":4.3,"review_count":346,"price_range":0,"category":"Public library","address":"C. Villalonso, 16","latitude":40.3496382,"longitude":-3.7099287},{"id":19,"name":"Jos\u00e9 Saramago Municipal Public Library","rating":4.0,"review_count":122,"price_range":0,"category":"Public library","address":"Av. de Monforte de Lemos, 38","latitude":40.4796138,"longitude":-3.7094713},{"id":20,"name":"Biblioteca Regional Joaqu\u00edn Leguina","rating":3.2,"review_count":225,"price_range":0,"category":"Public library","address":"C. de Ram\u00edrez de Prado, 3","latitude":40.3999045,"longitude":-3.6908323},{"id":21,"name":"Municipal Public Library Pablo Neruda","rating":4.0,"review_count":172,"price_range":0,"category":"Public library","address":"C. de Ascao, 4","latitude":40.4293549,"longitude":-3.6416207},{"id":22,"name":"Municipal Public Library Gloria Fuertes","rating":4.0,"review_count":93,"price_range":0,"category":"Public library","address":"Av. de Logro\u00f1o, 179","latitude":40.4607649,"longitude":-3.5937723},{"id":23,"name":"Biblioteca P\u00fablica Municipal Jos\u00e9 Hierro","rating":4.4,"review_count":142,"price_range":0,"category":"Public library","address":"C. de Mar\u00eda Sevilla Diago, 13","latitude":40.433403,"longitude":-3.6106315},{"id":24,"name":"Municipal Public Library Manuel Vazquez Montalban","rating":3.7,"review_count":119,"price_range":0,"category":"Library","address":"C. de Francos Rodr\u00edguez, 67","latitude":40.4570045,"longitude":-3.7107185},{"id":25,"name":"Biblioteca P\u00fablica Hortaleza","rating":3.9,"review_count":36,"price_range":0,"category":"Public library","address":"CEPA Dulce Chac\u00f3n, C. Abertura, s\/n","latitude":40.4771855,"longitude":-3.6496008},{"id":26,"name":"Public Library VALLECAS","rating":4.2,"review_count":339,"price_range":0,"category":"Public library","address":"Av. de Rafael Alberti, 36","latitude":40.3846652,"longitude":-3.6431375},{"id":27,"name":"Public Library Moratalaz","rating":4.4,"review_count":116,"price_range":0,"category":"Public library","address":"C. del Corregidor Alonso de Tobar, 5","latitude":40.4040484,"longitude":-3.649459},{"id":28,"name":"Municipal Public Library Portazgo","rating":4.1,"review_count":63,"price_range":0,"category":"Public library","address":"C. Cantalapiedra, 11","latitude":40.3932133,"longitude":-3.655431},{"id":29,"name":"IE Library","rating":3.1,"review_count":32,"price_range":0,"category":"University library","address":"Calle de Mar\u00eda de Molina, 31 BIS","latitude":40.437836,"longitude":-3.6821721},{"id":30,"name":"Public Library \u00c1ngel Gonz\u00e1lez","rating":4.1,"review_count":215,"price_range":0,"category":"Public library","address":"C. de Granja de Torrehermosa, 1","latitude":40.3969211,"longitude":-3.7663642},{"id":31,"name":"Municipal Library La Elipa","rating":4.2,"review_count":75,"price_range":0,"category":"Public library","address":"C. de Ntra. Sra. del Villar, 6","latitude":40.4233867,"longitude":-3.6517515},{"id":32,"name":"Biblioteca P\u00fablica Municipal Ciudad Lineal","rating":4.2,"review_count":36,"price_range":0,"category":"Public library","address":"C. de los Hermanos Garc\u00eda Noblejas, 14","latitude":40.4363074,"longitude":-3.6372316},{"id":33,"name":"Municipal Public Library Gabriel Garcia Marquez","rating":4.2,"review_count":109,"price_range":0,"category":"Library","address":"Pl. del Pueblo, 2","latitude":40.3667535,"longitude":-3.7014879},{"id":34,"name":"Biblioteca P\u00fablica Municipal San Blas","rating":3.8,"review_count":71,"price_range":0,"category":"Public library","address":"C. de San Rom\u00e1n del Valle, 8","latitude":40.419672,"longitude":-3.6215429},{"id":35,"name":"Study Room Luis Garc\u00eda Berlanga","rating":3.0,"review_count":141,"price_range":0,"category":"Public library","address":"C. Vi\u00f1a Virgen, 2","latitude":40.4652902,"longitude":-3.6940561},{"id":36,"name":"Municipal Public Library Canillejas","rating":4.1,"review_count":90,"price_range":0,"category":"Public library","address":"C\/ de Bolta\u00f1a, 23","latitude":40.4463572,"longitude":-3.6120407},{"id":37,"name":"Hemeroteca Municipal de Madrid","rating":4.4,"review_count":12,"price_range":0,"category":"Public library","address":"patio norte, C. del Conde Duque, 9-11","latitude":40.4283496,"longitude":-3.7104952},{"id":38,"name":"Biblioteca P\u00fablica Municipal San Ferm\u00edn","rating":4.6,"review_count":116,"price_range":0,"category":"Public library","address":"Av. de San Ferm\u00edn, 10","latitude":40.3708589,"longitude":-3.6928889},{"id":39,"name":"Municipal Public Library snub","rating":3.7,"review_count":103,"price_range":0,"category":"Public library","address":"Calle del Gral. Ricardos, 252","latitude":40.3829968,"longitude":-3.7419258},{"id":40,"name":"Miguel Delibes Public Library","rating":3.7,"review_count":94,"price_range":0,"category":"Public library","address":"C. del Arroyo Belincoso, 11","latitude":40.4097842,"longitude":-3.6529165},{"id":41,"name":"Francisco Ayala Public Library","rating":4.4,"review_count":75,"price_range":0,"category":"Public library","address":"Blvr. de Indalecio Prieto, 21","latitude":40.3997404,"longitude":-3.6210915},{"id":42,"name":"Biblioteca P\u00fablica Municipal Paco Rabal","rating":4.7,"review_count":3,"price_range":0,"category":"Public library","address":"C. de Felipe de Diego, 11","latitude":40.3792264,"longitude":-3.66149},{"id":43,"name":"Municipal Public Library Vic\u00e1lvaro","rating":4.2,"review_count":82,"price_range":0,"category":"Public library","address":"C. Villardondiego, 36","latitude":40.4052922,"longitude":-3.6086153},{"id":44,"name":"Biblioteca P\u00fablica Municipal Huerta de la Salud","rating":4.2,"review_count":117,"price_range":0,"category":"Public library","address":"C. del Mar de las Antillas, 10","latitude":40.4752157,"longitude":-3.6457765},{"id":45,"name":"Gerardo Diego Municipal Public Library","rating":4.0,"review_count":73,"price_range":0,"category":"Public library","address":"C. del Monte Aya, 12","latitude":40.37788,"longitude":-3.62267},{"id":46,"name":"Biblioteca P\u00fablica Benito P\u00e9rez Galdos","rating":3.2,"review_count":33,"price_range":0,"category":"Library","address":"C. del Conde Duque, 9","latitude":40.4278708,"longitude":-3.7111912},{"id":47,"name":"Central Library of the UNED","rating":4.0,"review_count":102,"price_range":0,"category":"Library","address":"P.\u00ba de la Senda del Rey, 5","latitude":40.4360948,"longitude":-3.7349703},{"id":48,"name":"Biblioteca del Real Jard\u00edn Botanico","rating":4.2,"review_count":5,"price_range":0,"category":"Public library","address":"C. Claudio Moyano, 1","latitude":40.4097622,"longitude":-3.6894019},{"id":49,"name":"Biblioteca Instituto Americano","rating":3.3,"review_count":3,"price_range":0,"category":"Library","address":"C. de Miguel \u00c1ngel, 8","latitude":40.4342359,"longitude":-3.6910453},{"id":50,"name":"Biblioteca General del Ministerio de Transportes, Movilidad y Agenda Urbana","rating":5.0,"review_count":1,"price_range":0,"category":"Public library","address":"P.\u00ba de la Castellana, 67","latitude":40.4435818,"longitude":-3.6935795},{"id":51,"name":"Municipal Public Library Aluche","rating":3.8,"review_count":100,"price_range":0,"category":"Library","address":"C. de Camarena, 10","latitude":40.3954681,"longitude":-3.7562414},{"id":52,"name":"Aula de Estudios","rating":4.0,"review_count":55,"price_range":0,"category":"Public library","address":"C. de la Batalla del Salado, 13","latitude":40.4025453,"longitude":-3.6955275},{"id":53,"name":"Biblioteca Hist\u00f3rica Municipal de Madrid","rating":5.0,"review_count":1,"price_range":0,"category":"Public library","address":"C. del Conde Duque, 9, patio central, planta 1","latitude":40.4272558,"longitude":-3.7107181},{"id":54,"name":"Sala de Lectura Paseo de Extremadura","rating":3.5,"review_count":35,"price_range":0,"category":"Public library","address":"P.\u00ba de Extremadura, 128","latitude":40.4112085,"longitude":-3.7356521},{"id":55,"name":"Sala de Estudio Cor\u00edn Tellado","rating":4.3,"review_count":4,"price_range":0,"category":"Public library","address":"C. de Sta. Pola, 22","latitude":40.4323694,"longitude":-3.7371319},{"id":56,"name":"Biblioteca del Campus Madrid Puerta de Toledo UC3M","rating":3.9,"review_count":9,"price_range":0,"category":"University library","address":"Ronda de Toledo, 1","latitude":40.4067681,"longitude":-3.7109921},{"id":57,"name":"Centro de Documentaci\u00f3n de las Artes Esc\u00e9nicas y de la M\u00fasica","rating":4.0,"review_count":9,"price_range":0,"category":"Public library","address":"C. de Alfonso XII, 3-5, edificio B","latitude":40.4090309,"longitude":-3.6870911},{"id":58,"name":"Biblioteca P\u00fablica Municipal Maria Lejarraga","rating":4.0,"review_count":140,"price_range":0,"category":"Library","address":"C. de la Princesa de \u00c9boli, 29","latitude":40.4903606,"longitude":-3.6554345},{"id":59,"name":"Biblioteca Municipal de Coslada","rating":3.9,"review_count":141,"price_range":0,"category":"Public library","address":"Av. de los Pr\u00edncipes de Espa\u00f1a, 16","latitude":40.4258716,"longitude":-3.5483397},{"id":60,"name":"UNED Humanities Library","rating":3.6,"review_count":38,"price_range":0,"category":"Library","address":"C. de Argumosa, 1","latitude":40.408564,"longitude":-3.7007274},{"id":61,"name":"Biblioteca Central, Universidad San Pablo-CEU","rating":4.2,"review_count":20,"price_range":0,"category":"Library","address":"C. de Juli\u00e1n Romea, 22","latitude":40.4429485,"longitude":-3.7179494},{"id":62,"name":"Library Museo Nacional Centro de Arte Reina Sof\u00eda","rating":3.7,"review_count":171,"price_range":0,"category":"Library","address":"Rda. de Atocha, 2","latitude":40.4074697,"longitude":-3.6947142},{"id":63,"name":"Sala de Lectura Maqueda","rating":3.9,"review_count":68,"price_range":0,"category":"Public library","address":"C. de Maqueda, 5","latitude":40.3946398,"longitude":-3.764965},{"id":64,"name":"Sala De Lectura Cayetano Pando","rating":4.0,"review_count":21,"price_range":0,"category":"Public library","address":"C. Cayetano Pando, 8","latitude":40.4028766,"longitude":-3.7465429},{"id":65,"name":"Biblioteca Municipal Benito P\u00e9rez Gald\u00f3s","rating":4.4,"review_count":41,"price_range":0,"category":"Public library","address":"C. Volturno, 2","latitude":40.4084017,"longitude":-3.7969827},{"id":66,"name":"Municipal Library El Pinar","rating":4.4,"review_count":20,"price_range":0,"category":"Public library","address":"Calle Ministro Francisco Fern\u00e1ndez Ord\u00f3\u00f1ez, s\/n","latitude":40.3464559,"longitude":-3.8062332},{"id":67,"name":"Biblioteca Mar\u00eda Zambrano - Universidad Complutense de Madrid","rating":4.2,"review_count":333,"price_range":0,"category":"University library","address":"Complutense University of Madrid, Calle del Prof. Aranguren, s\/n","latitude":40.449241,"longitude":-3.733279},{"id":68,"name":"Biblioteca Tom\u00e1s Navarro Tom\u00e1s","rating":3.5,"review_count":33,"price_range":0,"category":"Library","address":"Centro de Ciencias Humanas y Sociales del CSIC, C. de Albasanz, 26-28","latitude":40.4366326,"longitude":-3.6290854},{"id":69,"name":"Biblioteca EOI Jes\u00fas Maestro","rating":4.5,"review_count":2,"price_range":0,"category":"Library","address":"C. Jes\u00fas Maestro, 5","latitude":40.4405955,"longitude":-3.7114554},{"id":70,"name":"Biblioteca francesa Saint-Louis Madrid","rating":4.8,"review_count":4,"price_range":0,"category":"Library","address":"C. de Padilla, 9","latitude":40.4317206,"longitude":-3.6850659},{"id":71,"name":"Victor Espin\u00f3s Musical Library (Countduke)","rating":3.8,"review_count":153,"price_range":0,"category":"Library","address":"C. del Conde Duque, 11","latitude":40.4283019,"longitude":-3.7109502},{"id":72,"name":"Bibliometro Legazpi","rating":4.7,"review_count":3,"price_range":0,"category":"Library","address":"Pl. de Legazpi, 9","latitude":40.3916574,"longitude":-3.6953826},{"id":73,"name":"UCM Biblioteca Hist\u00f3rica Marqu\u00e9s de Valdecilla","rating":4.5,"review_count":24,"price_range":0,"category":"Library","address":"C. del Noviciado, 3","latitude":40.4254782,"longitude":-3.7078981},{"id":74,"name":"Bibliometro Moncloa","rating":4.0,"review_count":4,"price_range":0,"category":"Library","address":"Intercambiador de Moncloa, C. de Isaac Peral, 1","latitude":40.4352043,"longitude":-3.7190648},{"id":75,"name":"Librer\u00eda Eleutheria","rating":5.0,"review_count":2,"price_range":0,"category":"Library","address":"C. de los Abades, 10","latitude":40.4101875,"longitude":-3.7050393},{"id":76,"name":"Municipal Library Miguel Delibes","rating":2.9,"review_count":21,"price_range":0,"category":"Public library","address":"C. la Iglesia, 7","latitude":40.350136,"longitude":-3.8287112},{"id":77,"name":"Comillas Pontifical University Library","rating":3.6,"review_count":21,"price_range":0,"category":"Library","address":"C. de Sta. Cruz de Marcenado, 25","latitude":40.4297294,"longitude":-3.7123768},{"id":78,"name":"Sara Montiel Cultural Center","rating":4.2,"review_count":157,"price_range":0,"category":"Public library","address":"Carr. de Boadilla del Monte, 40","latitude":40.3995525,"longitude":-3.7750248},{"id":79,"name":"Servicio de Biblioteca Universitaria de la UPM","rating":5.0,"review_count":1,"price_range":0,"category":"University library","address":"C. Ramiro de Maeztu, 7, Planta 1","latitude":40.448701,"longitude":-3.7196132},{"id":80,"name":"European Documentation Centre of the Community of Madrid","rating":4.2,"review_count":5,"price_range":0,"category":"Records storage facility","address":"Calle de Castell\u00f3, 123","latitude":40.4385436,"longitude":-3.6806118},{"id":81,"name":"Biblioteca ETSI Minas y Energ\u00eda UPM","rating":4.3,"review_count":7,"price_range":0,"category":"University library","address":"C. de R\u00edos Rosas, 21","latitude":40.4421362,"longitude":-3.7003147},{"id":82,"name":"Sala de Estudios Fernando Vizca\u00edno Casas","rating":4.1,"review_count":39,"price_range":0,"category":"Library","address":"C. de Blasco de Garay, 40","latitude":40.4333558,"longitude":-3.7113602},{"id":83,"name":"UPM South Campus Library","rating":4.3,"review_count":99,"price_range":0,"category":"Public library","address":"C. de Alan Turing, s\/n","latitude":40.3903453,"longitude":-3.627015},{"id":84,"name":"Biblioteca Municipal Jos\u00e9 Saramago","rating":3.8,"review_count":41,"price_range":0,"category":"Public library","address":"Av. de Covibar, 10","latitude":40.3648251,"longitude":-3.5491041},{"id":85,"name":"Museum of the National Library","rating":4.5,"review_count":140,"price_range":0,"category":"Library","address":"P.\u00ba de Recoletos, 20, 22","latitude":40.4236361,"longitude":-3.6898055},{"id":86,"name":"Biblioteca UESD","rating":4.9,"review_count":7,"price_range":0,"category":"Library","address":"C. San Buenaventura, 9","latitude":40.4121779,"longitude":-3.7158366},{"id":87,"name":"Biblio Camara","rating":2.6,"review_count":8,"price_range":0,"category":"Library","address":"C. de Pedro Salinas, 11","latitude":40.4576738,"longitude":-3.6621157},{"id":88,"name":"Ministry of Education Library","rating":3.9,"review_count":9,"price_range":0,"category":"Library","address":"C. de San Agust\u00edn, 5","latitude":40.4149883,"longitude":-3.696806},{"id":89,"name":"Biblioteca P\u00fablica Municipal Mar\u00eda Moliner","rating":4.7,"review_count":35,"price_range":0,"category":"Public library","address":"Pl. del Per\u00fa, 13","latitude":40.3658305,"longitude":-3.4846736},{"id":90,"name":"Biblioteca","rating":2.7,"review_count":7,"price_range":0,"category":"Library","address":"C. de la Costa Brava, 2","latitude":40.4957408,"longitude":-3.7016973},{"id":91,"name":"Biblioteca de la ETSI de Caminos, Canales y Puertos UPM - Edificio Moncloa","rating":5.0,"review_count":1,"price_range":0,"category":"University library","address":"Campus, Calle del Prof. Aranguren, 3","latitude":40.4471391,"longitude":-3.7318673},{"id":92,"name":"Red de Bibliotecas y Archivos del CSIC","rating":5.0,"review_count":5,"price_range":0,"category":"University library","address":"C. de Joaqu\u00edn Costa, 22","latitude":40.4441327,"longitude":-3.684887},{"id":93,"name":"Biblioteca Municipal Princesa Do\u00f1a Leonor","rating":4.1,"review_count":25,"price_range":0,"category":"Public library","address":"C. de los M\u00e1rtires, 1","latitude":40.40649,"longitude":-3.87574},{"id":94,"name":"Biblioteca de la ETSI de Montes, Forestal y del Medio Natural UPM","rating":4.6,"review_count":5,"price_range":0,"category":"University library","address":"C. de Jos\u00e9 Antonio Novais, 10","latitude":40.4509187,"longitude":-3.7204252},{"id":95,"name":"Fundaci\u00f3n Federico Garc\u00eda Lorca","rating":4.3,"review_count":4,"price_range":0,"category":"Library","address":"C. del Pinar, 23","latitude":40.4411146,"longitude":-3.6882572},{"id":96,"name":"Caf\u00e9s Guayac\u00e1n - Tostadores de Caf\u00e9","rating":4.9,"review_count":147,"price_range":0,"category":"Coffee roasters","address":"C. de Fern\u00e1ndez de los R\u00edos, 26","latitude":40.4351644,"longitude":-3.7070123},{"id":97,"name":"Randall Coffee Roasters","rating":4.7,"review_count":201,"price_range":0,"category":"Coffee shop","address":"C. de Vallehermoso, 36","latitude":40.4343153,"longitude":-3.7083542},{"id":98,"name":"Hola Coffee Fourquet","rating":4.4,"review_count":801,"price_range":1,"category":"Coffee shop","address":"Calle del Dr. Fourquet, 33","latitude":40.4070207,"longitude":-3.6990835},{"id":99,"name":"Santa Kafeina","rating":4.8,"review_count":309,"price_range":1,"category":"Coffee shop","address":"Calle de Viriato, 37","latitude":40.4359419,"longitude":-3.7001877},{"id":100,"name":"Urbano Specialty Coffee","rating":4.5,"review_count":738,"price_range":0,"category":"Coffee shop","address":"C. de Sta. B\u00e1rbara, 8","latitude":40.424344,"longitude":-3.7014136},{"id":101,"name":"East Crema Coffee - Hermosilla (Specialty Coffee Caf\u00e9 de especialidad en Madrid)","rating":4.6,"review_count":218,"price_range":0,"category":"Coffee shop","address":"C. de Hermosilla, 38","latitude":40.4262363,"longitude":-3.6831145},{"id":102,"name":"Bianchi Kiosko Caff\u00e9","rating":4.7,"review_count":445,"price_range":0,"category":"Coffee shop","address":"C. de San Joaqu\u00edn, 9","latitude":40.4243932,"longitude":-3.70164},{"id":103,"name":"Osom Coffee Atelier (Caf\u00e9 De Especialidad Madrid)","rating":4.7,"review_count":800,"price_range":0,"category":"Cafe","address":"Calle de Sta. Teresa, 2, Bajo-Local 4","latitude":40.4262329,"longitude":-3.6965183},{"id":104,"name":"FELIZ COFFEE Specialty Coffee","rating":4.7,"review_count":776,"price_range":1,"category":"Cafe","address":"C. de Lope de Vega, 2","latitude":40.415239,"longitude":-3.6990265},{"id":105,"name":"The Fix - Caf\u00e9 de Especialidad","rating":4.6,"review_count":923,"price_range":2,"category":"Coffee shop","address":"Calle de Luisa Fernanda, 15","latitude":40.425722,"longitude":-3.7149933},{"id":106,"name":"Luso Coffee Shop | Madrid","rating":4.4,"review_count":168,"price_range":1,"category":"Coffee shop","address":"C. de Atocha, 60","latitude":40.411997,"longitude":-3.6986691},{"id":107,"name":"Enjoy-Working","rating":5.0,"review_count":6,"price_range":0,"category":"Coworking space","address":"C. del Condado de Trevi\u00f1o, 9, Local 3","latitude":40.4794068,"longitude":-3.6728601},{"id":108,"name":"COWORKING ESPACIO A4","rating":4.7,"review_count":6,"price_range":0,"category":"Coworking space","address":"Avenida de Manoteras n\u00b0 10, edificio A, m\u00f3dulo 108","latitude":40.488316,"longitude":-3.671116},{"id":109,"name":"sHub Madrid","rating":5.0,"review_count":3,"price_range":0,"category":"Coworking space","address":"C. de Labastida, 1","latitude":40.4884941,"longitude":-3.6898437},{"id":110,"name":"Cink Coworking","rating":4.9,"review_count":56,"price_range":0,"category":"Coworking space","address":"Av. de Manoteras, 24","latitude":40.4865425,"longitude":-3.6669427},{"id":111,"name":"Coworking Espacio Geranios","rating":4.6,"review_count":72,"price_range":0,"category":"Coworking space","address":"Av. de Asturias, 45, bajo","latitude":40.4697029,"longitude":-3.6964734},{"id":112,"name":"OLASMKT COWORKING","rating":5.0,"review_count":3,"price_range":0,"category":"Coworking space","address":"Av. de P\u00edo XII, 92","latitude":40.4717788,"longitude":-3.6733475},{"id":113,"name":"Coworking LOOM Torre Chamart\u00edn","rating":4.8,"review_count":24,"price_range":0,"category":"Coworking space","address":"C. de Dulce Chac\u00f3n, 55","latitude":40.4864509,"longitude":-3.6715834},{"id":114,"name":"The Shed CoWorking","rating":4.7,"review_count":143,"price_range":0,"category":"Coworking space","address":"C. de Hermosilla, 48, 1\u00ba Derecha","latitude":40.4261105,"longitude":-3.6818737},{"id":115,"name":"NOMAD COWORKING","rating":5.0,"review_count":59,"price_range":0,"category":"Coworking space","address":"C. del Poeta Joan Maragall, 56, BAJO","latitude":40.4625244,"longitude":-3.6911947},{"id":116,"name":"First workplaces - Plaza de Castilla First","rating":4.0,"review_count":5,"price_range":0,"category":"Coworking space","address":"P.\u00ba de la Castellana, 216","latitude":40.4667052,"longitude":-3.6880544},{"id":117,"name":"Coworking Snap","rating":5.0,"review_count":9,"price_range":0,"category":"Coworking space","address":"C. de Torregalindo, 1","latitude":40.4619539,"longitude":-3.6697664},{"id":118,"name":"Spaces - Madrid, Spaces Mar\u00eda de Molina","rating":4.6,"review_count":17,"price_range":0,"category":"Coworking space","address":"P.\u00ba de la Castellana, 163","latitude":40.461593,"longitude":-3.6912031},{"id":119,"name":"Business Center Balder Madrid","rating":4.6,"review_count":29,"price_range":0,"category":"Coworking space","address":"Calle de Jos\u00e9 Abascal, 44, 1\u00aa Planta","latitude":40.4380359,"longitude":-3.6942321},{"id":120,"name":"Chamber\u00ed Coworking","rating":5.0,"review_count":1,"price_range":0,"category":"Coworking space","address":"C. del Marqu\u00e9s de Lema, 11","latitude":40.4462083,"longitude":-3.7062698},{"id":121,"name":"Utopicus Paseo de la Habana","rating":4.6,"review_count":36,"price_range":0,"category":"Coworking space","address":"P.\u00ba de La Habana, 9, 11","latitude":40.4496332,"longitude":-3.6894479},{"id":122,"name":"White Lab | Coworking y Centro de Negocios en Cuzco, Bernab\u00e9u y Orense","rating":5.0,"review_count":1,"price_range":0,"category":"Coworking space","address":"P.\u00ba de la Castellana, 166, B","latitude":40.4594521,"longitude":-3.6889892},{"id":123,"name":"Impact Hub Picasso","rating":4.6,"review_count":40,"price_range":0,"category":"Coworking space","address":"Plaza Pablo Ruiz Picasso, 1","latitude":40.4504633,"longitude":-3.6927753},{"id":124,"name":"Working Space","rating":4.0,"review_count":13,"price_range":0,"category":"Coworking space","address":"C. de Pascual Hermanos, 3","latitude":40.5385113,"longitude":-3.6351001},{"id":125,"name":"Cloudworks Cibeles","rating":5.0,"review_count":15,"price_range":0,"category":"Coworking space","address":"C. de Pedro Mu\u00f1oz Seca, 2","latitude":40.4200752,"longitude":-3.690743},{"id":126,"name":"Pecsa Lab","rating":2.6,"review_count":10,"price_range":0,"category":"Coworking space","address":"C. de Manuel Tovar, 36, 2\u00ba Planta","latitude":40.4889575,"longitude":-3.6909688},{"id":127,"name":"Flipco Coworking","rating":1.0,"review_count":1,"price_range":0,"category":"Coworking space","address":"C. del Capit\u00e1n Blanco Argibay, 69","latitude":40.466222,"longitude":-3.7019058},{"id":128,"name":"la raum de chamberi coworking","rating":4.3,"review_count":3,"price_range":0,"category":"Coworking space","address":"Calle de Modesto Lafuente, 7","latitude":40.4362781,"longitude":-3.6965118},{"id":129,"name":"Utopicus Jos\u00e9 Abascal","rating":4.7,"review_count":18,"price_range":0,"category":"Coworking space","address":"Calle de Jos\u00e9 Abascal, 56","latitude":40.4377881,"longitude":-3.6921908},{"id":130,"name":"Coworking Wellsportclub Madrid","rating":5.0,"review_count":3,"price_range":0,"category":"Coworking space","address":"Wellsportclub, Av. del Dr. Federico Rubio y Gal\u00ed, 59","latitude":40.4527999,"longitude":-3.7130183},{"id":131,"name":"Cink Coworking","rating":4.6,"review_count":159,"price_range":0,"category":"Coworking space","address":"P.\u00ba de la Castellana, 194","latitude":40.461669,"longitude":-3.6890639},{"id":132,"name":"Sharing CO","rating":4.7,"review_count":140,"price_range":0,"category":"Coworking space","address":"C. de Caracas, 6","latitude":40.43062,"longitude":-3.694732},{"id":133,"name":"Cink Coworking","rating":4.7,"review_count":140,"price_range":0,"category":"Coworking space","address":"C. de Henri Dunant, 17","latitude":40.4600943,"longitude":-3.6840115},{"id":134,"name":"Bigwork Coworking","rating":5.0,"review_count":10,"price_range":0,"category":"Coworking space","address":"Av. del General Per\u00f3n, 14, Local","latitude":40.4522553,"longitude":-3.6973145},{"id":135,"name":"Coworking Esp\u00edritu23","rating":4.6,"review_count":114,"price_range":0,"category":"Coworking space","address":"C. del Esp\u00edritu Santo, 23","latitude":40.4254204,"longitude":-3.7046592},{"id":136,"name":"Utopicus","rating":4.5,"review_count":86,"price_range":0,"category":"Coworking space","address":"C. del Pr\u00edncipe de Vergara, 112","latitude":40.4397618,"longitude":-3.678353},{"id":137,"name":"Ecoworking","rating":4.1,"review_count":15,"price_range":0,"category":"Coworking space","address":"P.\u00ba de La Habana, 200","latitude":40.4627928,"longitude":-3.6797148},{"id":138,"name":"WeWork - Espacio de oficinas y coworking","rating":4.4,"review_count":130,"price_range":0,"category":"Coworking space","address":"P.\u00ba de la Castellana, 77","latitude":40.4481508,"longitude":-3.6925417},{"id":139,"name":"Area Coworking","rating":4.9,"review_count":25,"price_range":0,"category":"Coworking space","address":"C. de Tom\u00e1s Bret\u00f3n, 50-52","latitude":40.3971345,"longitude":-3.6917148},{"id":140,"name":"Coworking Bernab\u00e9u","rating":4.9,"review_count":32,"price_range":0,"category":"Coworking space","address":"C. de Pedro Teixeira, 16","latitude":40.4548282,"longitude":-3.6917933},{"id":141,"name":"NETWORKIA Business Center Cuzco","rating":5.0,"review_count":20,"price_range":0,"category":"Coworking space","address":"C. del Poeta Joan Maragall, 23","latitude":40.4578593,"longitude":-3.6924973},{"id":142,"name":"Utopicus Francisco Silvela","rating":4.9,"review_count":22,"price_range":0,"category":"Coworking space","address":"C\/ de Francisco Silvela, 42","latitude":40.4333969,"longitude":-3.6729631},{"id":143,"name":"My Coworking","rating":4.8,"review_count":5,"price_range":0,"category":"Coworking space","address":"Calle de Mar\u00eda Tubau, 3, 1\u00aa plta","latitude":40.5135503,"longitude":-3.6725673},{"id":144,"name":"Integra","rating":5.0,"review_count":1,"price_range":0,"category":"Coworking space","address":"C. de Juan Montalvo, 9","latitude":40.4474801,"longitude":-3.7104956},{"id":145,"name":"WeWork - Espacio de oficinas y coworking","rating":4.4,"review_count":231,"price_range":0,"category":"Coworking space","address":"P.\u00ba de la Castellana, 43","latitude":40.4354529,"longitude":-3.6896221},{"id":146,"name":"Coworking LOOM Huertas","rating":4.6,"review_count":60,"price_range":0,"category":"Coworking space","address":"C. de las Huertas, 11","latitude":40.414036,"longitude":-3.700693},{"id":147,"name":"Mandarina Hub Madrid","rating":5.0,"review_count":1,"price_range":0,"category":"Coworking space","address":"C. de Vel\u00e1zquez, 119, 1b","latitude":40.4371774,"longitude":-3.6833351},{"id":148,"name":"WeWork - Espacio de oficinas y coworking","rating":4.5,"review_count":89,"price_range":0,"category":"Coworking space","address":"C. de Eloy Gonzalo, 27","latitude":40.434714,"longitude":-3.7005151},{"id":149,"name":"Union Coworking","rating":5.0,"review_count":18,"price_range":0,"category":"Coworking space","address":"C. de Blasco de Garay, 94","latitude":40.4392007,"longitude":-3.7109788},{"id":150,"name":"CoolWork","rating":5.0,"review_count":3,"price_range":0,"category":"Coworking space","address":"Calle de Jos\u00e9 Abascal, 41","latitude":40.4384244,"longitude":-3.696033},{"id":151,"name":"Coworking LOOM Eucalipto","rating":4.7,"review_count":28,"price_range":0,"category":"Coworking space","address":"C. del Eucalipto, 33","latitude":40.4557788,"longitude":-3.6643572},{"id":152,"name":"Cink Coworking","rating":4.9,"review_count":29,"price_range":0,"category":"Coworking space","address":"C. del Limonero, 22","latitude":40.462054,"longitude":-3.6961825},{"id":153,"name":"Cink Coworking","rating":4.6,"review_count":83,"price_range":0,"category":"Coworking space","address":"Calle de N\u00fa\u00f1ez de Balboa, 120","latitude":40.4382007,"longitude":-3.6815876},{"id":154,"name":"GlueWork Madrid","rating":4.6,"review_count":44,"price_range":0,"category":"Coworking space","address":"Calle L\u00f3pez de Hoyos 42, Entrada por Edison, 3","latitude":40.4399404,"longitude":-3.6809834},{"id":155,"name":"Utopicus Orense","rating":4.7,"review_count":46,"price_range":0,"category":"Coworking space","address":"C. de Orense, 62","latitude":40.460538,"longitude":-3.6936973},{"id":156,"name":"Goya Smart Coworking","rating":4.9,"review_count":59,"price_range":0,"category":"Coworking space","address":"Calle de N\u00fa\u00f1ez de Balboa, 35A, Planta 5 Oficina A1","latitude":40.4253867,"longitude":-3.6828617},{"id":157,"name":"La Industrial coworking","rating":4.5,"review_count":67,"price_range":0,"category":"Coworking space","address":"Calle de San Andr\u00e9s, 8, Local","latitude":40.4260389,"longitude":-3.7037389},{"id":158,"name":"Madhat","rating":4.7,"review_count":75,"price_range":0,"category":"Coworking space","address":"Calle Naranjo 9, Calle Araucaria, 22","latitude":40.4604506,"longitude":-3.6995092},{"id":159,"name":"cool inquieto","rating":4.7,"review_count":34,"price_range":0,"category":"Coworking space","address":"C. del Pez, 38","latitude":40.424382,"longitude":-3.7068263},{"id":160,"name":"Coworkingabogados.es","rating":5.0,"review_count":6,"price_range":0,"category":"Coworking space","address":"P.\u00ba de la Castellana, 161, 1\u00ba C","latitude":40.4613377,"longitude":-3.6912279},{"id":161,"name":"Workcase Coworking","rating":5.0,"review_count":24,"price_range":0,"category":"Coworking space","address":"P.\u00ba del Rey, 4","latitude":40.4206875,"longitude":-3.7179716},{"id":162,"name":"Coworking LOOM Salamanca","rating":4.6,"review_count":69,"price_range":0,"category":"Coworking space","address":"Calle de Don Ram\u00f3n de la Cruz, 38","latitude":40.4288935,"longitude":-3.6818352},{"id":163,"name":"Talent Garden Madrid","rating":4.5,"review_count":168,"price_range":0,"category":"Coworking space","address":"C. de Juan de Mariana, 15","latitude":40.398326,"longitude":-3.6863441},{"id":164,"name":"TAMPICO34 coworking","rating":5.0,"review_count":2,"price_range":0,"category":"Coworking space","address":"C. de Tampico, 34","latitude":40.4436703,"longitude":-3.6344767},{"id":165,"name":"Coworking Storemore","rating":5.0,"review_count":9,"price_range":0,"category":"Coworking space","address":"C. de Francisco Gerv\u00e1s, 6","latitude":40.5312389,"longitude":-3.6508385},{"id":166,"name":"B2WORK Territory Coworker","rating":4.8,"review_count":45,"price_range":0,"category":"Coworking space","address":"C. del Dr. Esquerdo, 170","latitude":40.4027137,"longitude":-3.674215},{"id":167,"name":"Emprende&Co","rating":5.0,"review_count":2,"price_range":0,"category":"Coworking space","address":"P.\u00ba de La Habana, 15","latitude":40.4500339,"longitude":-3.6882365},{"id":168,"name":"Correoslabs","rating":4.5,"review_count":87,"price_range":0,"category":"Coworking space","address":"C. de la Sierra de Atapuerca, 13","latitude":40.5024441,"longitude":-3.6713282},{"id":169,"name":"Monday Chamber\u00ed","rating":5.0,"review_count":4,"price_range":0,"category":"Coworking space","address":"Calle de Sta Engracia, 23","latitude":40.4305957,"longitude":-3.6970597},{"id":170,"name":"Impact Hub Alameda","rating":4.5,"review_count":390,"price_range":0,"category":"Business center","address":"C. de la Alameda, 22","latitude":40.4105274,"longitude":-3.6939574},{"id":171,"name":"Green Coffees Specialty Coffee","rating":4.8,"review_count":172,"price_range":0,"category":"Cafeteria","address":"Av. del Dr. Federico Rubio y Gal\u00ed, 32","latitude":40.4508788,"longitude":-3.7094777},{"id":172,"name":"1000 Cups Specialty Coffee & Food","rating":4.2,"review_count":255,"price_range":0,"category":"Dog cafe","address":"Cmo. de Ganapanes, 1","latitude":40.4702921,"longitude":-3.7147359},{"id":173,"name":"Randall Coffee Roasters","rating":4.7,"review_count":201,"price_range":0,"category":"Coffee shop","address":"C. de Vallehermoso, 36","latitude":40.4343153,"longitude":-3.7083542},{"id":174,"name":"Nica Specialty Coffee","rating":5.0,"review_count":65,"price_range":0,"category":"Cafeteria","address":"C. de S\u00e1nchez Pacheco, 55","latitude":40.4476836,"longitude":-3.6722272},{"id":175,"name":"Urbano Specialty Coffee","rating":4.5,"review_count":738,"price_range":0,"category":"Cafe","address":"C. de Sta. B\u00e1rbara, 8","latitude":40.424344,"longitude":-3.7014136},{"id":176,"name":"Taruffi","rating":4.1,"review_count":273,"price_range":0,"category":"Coffee shop","address":"Av. de Monforte de Lemos, 36, Local 100","latitude":40.4796415,"longitude":-3.7075889},{"id":177,"name":"Espresso Cafe - Specialty Coffee","rating":4.7,"review_count":74,"price_range":0,"category":"Cafe","address":"C\/ de Donoso Cort\u00e9s, 62","latitude":40.4364472,"longitude":-3.7124529},{"id":178,"name":"East Crema Coffee - Hermosilla (Specialty Coffee Caf\u00e9 de especialidad en Madrid)","rating":4.6,"review_count":218,"price_range":0,"category":"Coffee shop","address":"C. de Hermosilla, 38","latitude":40.4262363,"longitude":-3.6831145},{"id":179,"name":"FELIZ COFFEE Specialty Coffee","rating":4.7,"review_count":776,"price_range":1,"category":"Cafe","address":"C. de Lope de Vega, 2","latitude":40.415239,"longitude":-3.6990265},{"id":180,"name":"Hola Coffee Fourquet","rating":4.4,"review_count":801,"price_range":1,"category":"Coffee shop","address":"Calle del Dr. Fourquet, 33","latitude":40.4070207,"longitude":-3.6990835},{"id":181,"name":"La Deseada Specialty Coffee","rating":4.8,"review_count":149,"price_range":0,"category":"Cafe","address":"Calle de Jos\u00e9 Abascal, 53","latitude":40.4383059,"longitude":-3.6939322},{"id":182,"name":"Caf\u00e9s Tornasol | Specialty Coffee Madrid","rating":4.7,"review_count":313,"price_range":0,"category":"Cafe","address":"C. de Sta. Isabel, N\u00ba5, Planta Baja","latitude":40.4115944,"longitude":-3.6986562},{"id":183,"name":"UMAMI SPECIALTY COFFEE","rating":4.8,"review_count":567,"price_range":2,"category":"Coffee shop","address":"C. de la Alameda, 1","latitude":40.4124553,"longitude":-3.693843},{"id":184,"name":"East Crema Coffee - Preciados (Specialty Coffee Caf\u00e9 de especialidad en Madrid)","rating":4.9,"review_count":54,"price_range":0,"category":"Cafeteria","address":"C. de Preciados, 33","latitude":40.4196019,"longitude":-3.7067856},{"id":185,"name":"Noburu specialty coffee","rating":4.9,"review_count":58,"price_range":0,"category":"Coffee shop","address":"C. del Dos de Mayo, 9","latitude":40.4262226,"longitude":-3.7042445},{"id":186,"name":"Sood Coffee (Caf\u00e9 de especialidad \/ Specialty Coffee)","rating":4.9,"review_count":107,"price_range":0,"category":"Cafeteria","address":"C. de Menorca, 22","latitude":40.419273,"longitude":-3.6765259},{"id":187,"name":"Wilko Speciality Coffee","rating":4.5,"review_count":178,"price_range":0,"category":"Coffee shop","address":"C. de Fern\u00e1ndez de los R\u00edos, 40","latitude":40.4351757,"longitude":-3.7083646},{"id":188,"name":"The Fix - Caf\u00e9 de Especialidad","rating":4.6,"review_count":923,"price_range":2,"category":"Coffee shop","address":"Calle de Luisa Fernanda, 15","latitude":40.425722,"longitude":-3.7149933},{"id":189,"name":"Pulso Caf\u00e9 - Specialty Coffee","rating":4.9,"review_count":95,"price_range":0,"category":"Cafeteria","address":"C. de Ventura Rodr\u00edguez, 22","latitude":40.4245193,"longitude":-3.714366},{"id":190,"name":"PASTORA \u2014 Specialty coffee y vinos naturales","rating":4.9,"review_count":148,"price_range":0,"category":"Coffee shop","address":"Carrera de San Francisco, 12","latitude":40.4109492,"longitude":-3.7130563},{"id":191,"name":"Makis Coffee Shop","rating":4.2,"review_count":254,"price_range":0,"category":"Coffee shop","address":"C. de Embajadores, 56","latitude":40.4077661,"longitude":-3.7043091},{"id":192,"name":"10.10 COFFEE","rating":4.2,"review_count":147,"price_range":0,"category":"Cafe","address":"Calle de Lagasca, 42","latitude":40.4250325,"longitude":-3.6853063},{"id":193,"name":"Osom Coffee Cantine (caf\u00e9 de especialidad)","rating":4.7,"review_count":347,"price_range":0,"category":"Cafe","address":"C. de Morat\u00edn, 38, Bajo 3","latitude":40.4125596,"longitude":-3.695297},{"id":194,"name":"BRUTAL SPECIALTY COFFEE","rating":4.5,"review_count":86,"price_range":0,"category":"Coffee shop","address":"Pl. del \u00c1ngel, 5","latitude":40.4144218,"longitude":-3.7021457},{"id":195,"name":"Hey My Coffee","rating":4.8,"review_count":79,"price_range":0,"category":"Coffee shop","address":"Calle del General D\u00edaz Porlier, 34","latitude":40.4280291,"longitude":-3.6768286},{"id":196,"name":"HAT COFFEE - Specialty Coffee","rating":4.8,"review_count":78,"price_range":0,"category":"Coffee shop","address":"C. de Padilla, 68","latitude":40.4310132,"longitude":-3.6742542},{"id":197,"name":"Cafeteando","rating":4.9,"review_count":259,"price_range":1,"category":"Coffee shop","address":"Plaza de Olavide, 10","latitude":40.4331743,"longitude":-3.7006257},{"id":198,"name":"Santa Kafeina","rating":4.8,"review_count":309,"price_range":1,"category":"Coffee shop","address":"Calle de Viriato, 37","latitude":40.4359419,"longitude":-3.7001877},{"id":199,"name":"Dot Caf\u00e9 Bar","rating":4.6,"review_count":768,"price_range":2,"category":"Coffee shop","address":"C. de Eugenio Sell\u00e9s, 6","latitude":40.3960039,"longitude":-3.6988582},{"id":200,"name":"Dr\u00f8mme Kaffe House - Caf\u00e9 de especialidad","rating":4.8,"review_count":361,"price_range":0,"category":"Cafeteria","address":"C. de Juana Do\u00f1a, 8","latitude":40.396747,"longitude":-3.6929015},{"id":201,"name":"Ut\u00f8pico - Specialty Coffee","rating":4.8,"review_count":171,"price_range":0,"category":"Cafeteria","address":"Calle de Juan Bravo, 27","latitude":40.4328503,"longitude":-3.6800421},{"id":202,"name":"B\u00f4 Coffee","rating":4.2,"review_count":701,"price_range":0,"category":"Cafeteria","address":"C. de Espronceda, 16","latitude":40.4405396,"longitude":-3.6977732},{"id":203,"name":"Syra Coffee Santa Isabel","rating":4.9,"review_count":274,"price_range":0,"category":"Coffee shop","address":"C. de Sta. Isabel, 15","latitude":40.4107823,"longitude":-3.6980992},{"id":204,"name":"Osom Coffee Atelier (Caf\u00e9 De Especialidad Madrid)","rating":4.7,"review_count":800,"price_range":0,"category":"Cafe","address":"Calle de Sta. Teresa, 2, Bajo-Local 4","latitude":40.4262329,"longitude":-3.6965183},{"id":205,"name":"East Crema Coffee - Almirante (Specialty Coffee Caf\u00e9 de especialidad en Madrid)","rating":4.6,"review_count":195,"price_range":0,"category":"Cafeteria","address":"Calle del Almte., 10","latitude":40.4223943,"longitude":-3.6945469},{"id":206,"name":"Gosto Caf\u00e9","rating":4.7,"review_count":68,"price_range":0,"category":"Coffee shop","address":"C. de la Palma, 47","latitude":40.4264476,"longitude":-3.705591},{"id":207,"name":"Agrado Caf\u00e9","rating":4.5,"review_count":392,"price_range":0,"category":"Cafe","address":"C. de Embajadores, 14","latitude":40.4099917,"longitude":-3.7064681},{"id":208,"name":"C\u00edrculo Coffee Studio","rating":4.9,"review_count":90,"price_range":0,"category":"Cafe","address":"C. de las Infantas, 30, Local 02","latitude":40.4203812,"longitude":-3.6985889},{"id":209,"name":"Ambu Coffee","rating":4.4,"review_count":331,"price_range":0,"category":"Coffee shop","address":"C. del Pez, 36","latitude":40.4242162,"longitude":-3.706317},{"id":210,"name":"\u00d6SS Kaffe Madrid","rating":4.8,"review_count":96,"price_range":0,"category":"Cafe","address":"Calle de Manuel Cortina, 1","latitude":40.4307388,"longitude":-3.6990571},{"id":211,"name":"Syra Coffee - Espartinas","rating":5.0,"review_count":103,"price_range":0,"category":"Coffee shop","address":"C. de Espartinas, 6","latitude":40.4243134,"longitude":-3.6792994},{"id":212,"name":"Syra Coffee - Rios Rosas","rating":5.0,"review_count":169,"price_range":0,"category":"Coffee shop","address":"C. de R\u00edos Rosas, 36","latitude":40.4415569,"longitude":-3.6982425},{"id":213,"name":"Ambu Coffee 3","rating":4.6,"review_count":118,"price_range":0,"category":"Coffee shop","address":"C. de las Huertas, 17","latitude":40.4138574,"longitude":-3.6997539},{"id":214,"name":"Pan y Pepinillos Caf\u00e9","rating":4.7,"review_count":121,"price_range":0,"category":"Coffee shop","address":"C. de El Escorial, 2","latitude":40.4237639,"longitude":-3.7027066},{"id":215,"name":"GEISHA Specialty Coffee","rating":4.9,"review_count":323,"price_range":0,"category":"Cafeteria","address":"C. de las Navas de Tolosa, 6, LOCAL, IZQUIERDA","latitude":40.4192576,"longitude":-3.7065808},{"id":216,"name":"Cero Coffee Roasters - Tostadores de caf\u00e9","rating":4.9,"review_count":178,"price_range":0,"category":"Coffee store","address":"C. de Alc\u00e1ntara, 16","latitude":40.4269147,"longitude":-3.6737892},{"id":217,"name":"East Crema Coffee - Diego de Le\u00f3n 12 (Specialty Coffee Caf\u00e9 de especialidad en Madrid)","rating":4.6,"review_count":39,"price_range":0,"category":"Cafeteria","address":"Calle de Diego de Le\u00f3n, 12","latitude":40.4348677,"longitude":-3.6847529},{"id":218,"name":"DOSIS CAFE","rating":4.8,"review_count":234,"price_range":0,"category":"Cafe","address":"Calle de Gonzalo de C\u00f3rdoba, 3","latitude":40.4323347,"longitude":-3.703262},{"id":219,"name":"Real Coffee","rating":4.4,"review_count":84,"price_range":0,"category":"Coffee shop","address":"C\/ de Donoso Cort\u00e9s, 1","latitude":40.4359811,"longitude":-3.7047251},{"id":220,"name":"Luso Coffee Shop | Madrid","rating":4.4,"review_count":168,"price_range":1,"category":"Coffee shop","address":"C. de Atocha, 60","latitude":40.411997,"longitude":-3.6986691},{"id":221,"name":"Ambu Coffee 2","rating":4.5,"review_count":145,"price_range":0,"category":"Coffee shop","address":"Calle de N\u00fa\u00f1ez de Balboa, 28","latitude":40.425495,"longitude":-3.6826311},{"id":222,"name":"Slow Caf\u00e9 Madrid - Specialty Coffee Shop","rating":4.7,"review_count":230,"price_range":0,"category":"Cafeteria","address":"C. del Mediod\u00eda Grande, 20","latitude":40.4101444,"longitude":-3.7115889},{"id":223,"name":"Cafelito","rating":4.7,"review_count":467,"price_range":0,"category":"Coffee shop","address":"C. del Sombrerete, 20","latitude":40.4083729,"longitude":-3.7027369},{"id":224,"name":"FOUR Madrid \u2014 Specialty coffee & Natural wine","rating":4.7,"review_count":253,"price_range":0,"category":"Espresso bar","address":"C. de Calder\u00f3n de la Barca, 8","latitude":40.416017,"longitude":-3.7111534},{"id":225,"name":"Caf\u00e9 & T\u00e9","rating":3.2,"review_count":919,"price_range":2,"category":"Coffee shop","address":"C. del Arenal, 20","latitude":40.4175955,"longitude":-3.7072171},{"id":226,"name":"DABOV Specialty Coffee Spain","rating":4.8,"review_count":300,"price_range":1,"category":"Cafe","address":"C. de Sta. Isabel, 42","latitude":40.4101176,"longitude":-3.6974377},{"id":227,"name":"Caf\u00e9 & T\u00e9","rating":3.1,"review_count":592,"price_range":2,"category":"Coffee shop","address":"C. de la Princesa, 3","latitude":40.425201,"longitude":-3.712473},{"id":228,"name":"Natif Coffee & Kitchen","rating":4.7,"review_count":373,"price_range":0,"category":"Coffee shop","address":"Calle de Sta. Teresa, 2, Bajo- Local 5","latitude":40.4261424,"longitude":-3.6964425},{"id":229,"name":"Brownie Coffee","rating":4.1,"review_count":39,"price_range":0,"category":"Coffee shop","address":"C. de Hermosilla, 26","latitude":40.4262018,"longitude":-3.6849261},{"id":230,"name":"Aroma and Bread","rating":4.6,"review_count":671,"price_range":1,"category":"Coffee shop","address":"Calle de Apodaca, 10","latitude":40.427252,"longitude":-3.7006069},{"id":231,"name":"Novell","rating":4.5,"review_count":939,"price_range":1,"category":"Espresso bar","address":"Av. de la Ciudad de Barcelona, 196","latitude":40.4003672,"longitude":-3.6734662},{"id":232,"name":"ACID Bakehouse","rating":3.7,"review_count":563,"price_range":0,"category":"Coffee shop","address":"Calle de la Magdalena, 27","latitude":40.4124737,"longitude":-3.7003581},{"id":233,"name":"Panisimo","rating":3.9,"review_count":598,"price_range":1,"category":"Coffee shop","address":"C. de Atocha, 52","latitude":40.4122,"longitude":-3.69935},{"id":234,"name":"East Crema Coffee - Conde Pe\u00f1alver (Specialty Coffee Caf\u00e9 de especialidad en Madrid)","rating":4.8,"review_count":32,"price_range":0,"category":"Cafeteria","address":"C. del Conde de Pe\u00f1alver, 20","latitude":40.4271357,"longitude":-3.6753246},{"id":235,"name":"Scarlett | Real Food \u2022 Specialty Coffee | Restaurante - Cafeter\u00eda - Brunch - Desayunos - Saludable - Healthy","rating":4.6,"review_count":773,"price_range":2,"category":"Brunch","address":"Pl. del Emperador Carlos V, 10","latitude":40.4088529,"longitude":-3.6927178},{"id":236,"name":"Barehua | Brunch Bakery Specialty Coffee","rating":4.6,"review_count":546,"price_range":0,"category":"Brunch","address":"C. del Le\u00f3n, 23","latitude":40.4132586,"longitude":-3.6990719},{"id":237,"name":"Loops and Coffee","rating":3.0,"review_count":2,"price_range":0,"category":"Donuts","address":"C\/ Bravo Murillo, 3 Junto a la Glorieta de Quevedo","latitude":40.434235,"longitude":-3.704552},{"id":238,"name":"Religion Coffee SHOP","rating":4.4,"review_count":41,"price_range":0,"category":"Cafe","address":"C. del Pr\u00edncipe de Vergara, 16","latitude":40.4247051,"longitude":-3.6799952},{"id":239,"name":"80\u2019s coffee","rating":4.1,"review_count":596,"price_range":1,"category":"Coffee shop","address":"C. de Alcal\u00e1, 346","latitude":40.4343978,"longitude":-3.6451708},{"id":240,"name":"Cafeter\u00eda Jamaica - Coffee Shop -","rating":3.8,"review_count":307,"price_range":0,"category":"Coffee store","address":"Glorieta Pintor Sorolla, 4","latitude":40.4351776,"longitude":-3.6984045},{"id":241,"name":"2930 Coffee","rating":4.7,"review_count":62,"price_range":0,"category":"Cafeteria","address":"C\/ de Donoso Cort\u00e9s, 4","latitude":40.4361379,"longitude":-3.7048672},{"id":242,"name":"Juan Valdez Caf\u00e9","rating":4.2,"review_count":655,"price_range":1,"category":"Coffee shop","address":"P.\u00ba de la Florida, 2, Stand 5","latitude":40.421403,"longitude":-3.7198588},{"id":243,"name":"Siniestro | Cafe de Especialidad - Specialty Coffee","rating":4.9,"review_count":94,"price_range":0,"category":"Coffee shop","address":"C. del Conde Duque, N\u00ba 5","latitude":40.4261768,"longitude":-3.7114126},{"id":244,"name":"GRANIER","rating":3.8,"review_count":547,"price_range":1,"category":"Bakery","address":"C. del Mes\u00f3n de Paredes, 5","latitude":40.4116391,"longitude":-3.7051241},{"id":245,"name":"Caf\u00e9s Pozo","rating":4.8,"review_count":73,"price_range":0,"category":"Coffee store","address":"C. de Fernando el Cat\u00f3lico, 15","latitude":40.4338431,"longitude":-3.7079409},{"id":246,"name":"Cafe & Tapas","rating":2.8,"review_count":589,"price_range":2,"category":"Cafe","address":"Calle de Goya, 11","latitude":40.4257422,"longitude":-3.6882448},{"id":247,"name":"Cafeter\u00eda y sal\u00f3n de t\u00e9 Icaf\u00e9","rating":4.2,"review_count":340,"price_range":1,"category":"Coffee store","address":"C. de Nicol\u00e1s S\u00e1nchez, 69","latitude":40.3832207,"longitude":-3.7057382},{"id":248,"name":"Hola Coffee Roastery","rating":5.0,"review_count":19,"price_range":0,"category":"Coffee roasters","address":"C. de Sep\u00falveda, 109, Local","latitude":40.4042497,"longitude":-3.7457707},{"id":249,"name":"Bou Caf\u00e9","rating":4.1,"review_count":8,"price_range":0,"category":"Cafe","address":"C. del Dr. Esquerdo, 34","latitude":40.4232701,"longitude":-3.6690838},{"id":250,"name":"Colonial Overseas - Tea and coffee shop","rating":4.7,"review_count":218,"price_range":0,"category":"Tea store","address":"C. de Jos\u00e9 Ortega y Gasset, 92","latitude":40.4295746,"longitude":-3.6718111},{"id":251,"name":"La Flor del Pan","rating":4.5,"review_count":189,"price_range":1,"category":"Coffee shop","address":"C. de Argensola, 17","latitude":40.4257853,"longitude":-3.6946038},{"id":252,"name":"DARK Coffee Garage ( CAFE DE ESPECIALIDAD) [Specialty Coffee]","rating":5.0,"review_count":28,"price_range":0,"category":"Cafe","address":"C. de Manuela Malasa\u00f1a, 39","latitude":40.4288171,"longitude":-3.7057345},{"id":253,"name":"FECA Specialty Coffee","rating":4.9,"review_count":52,"price_range":0,"category":"Coffee shop","address":"C. de Ferrer del R\u00edo, 23","latitude":40.435215,"longitude":-3.6714547},{"id":254,"name":"Nommad Cafe - Specialty Coffee","rating":3.5,"review_count":407,"price_range":2,"category":"Restaurant","address":"C. de Alcal\u00e1, 107","latitude":40.421984,"longitude":-3.6825485},{"id":255,"name":"Santagloria Coffee & Bakery","rating":4.6,"review_count":96,"price_range":0,"category":"Espresso bar","address":"C. de San Bernardo, 58","latitude":40.4254117,"longitude":-3.7072309},{"id":256,"name":"Syra Coffee - Ferraz","rating":4.9,"review_count":165,"price_range":0,"category":"Cafeteria","address":"C. de Ferraz, 84","latitude":40.4299238,"longitude":-3.7208001},{"id":257,"name":"Caf\u00e9s La Mexicana","rating":4.5,"review_count":196,"price_range":0,"category":"Coffee store","address":"C. de Illescas, 51","latitude":40.3961333,"longitude":-3.7646792},{"id":258,"name":"Cafeteria Fanatico","rating":4.6,"review_count":235,"price_range":1,"category":"Coffee shop","address":"C. de Alfonso G\u00f3mez, 15","latitude":40.4390789,"longitude":-3.6291818},{"id":259,"name":"Harina","rating":3.9,"review_count":434,"price_range":2,"category":"Coffee shop","address":"C. de Vel\u00e1zquez, 61","latitude":40.4292623,"longitude":-3.6840496},{"id":260,"name":"The Coffee Corner","rating":4.3,"review_count":314,"price_range":1,"category":"Coffee shop","address":"Av. de Valladolid, 41","latitude":40.4286304,"longitude":-3.7296667},{"id":261,"name":"The Bear and the Madro\u00f1o","rating":4.4,"review_count":590,"price_range":1,"category":"Espresso bar","address":"C. del Doce de Octubre, 16","latitude":40.4156875,"longitude":-3.6759561},{"id":262,"name":"Caf\u00e9s Pozo","rating":4.6,"review_count":52,"price_range":0,"category":"Coffee store","address":"C. de Miguel Arredondo, 4","latitude":40.3949938,"longitude":-3.6959925},{"id":263,"name":"Caf\u00e9s La Mexicana","rating":4.6,"review_count":112,"price_range":0,"category":"Coffee store","address":"Calle de Fuencarral, 115","latitude":40.4298249,"longitude":-3.7028894}]